{"ITO": {"Latitude": 19.721399307250977, "Longitude": -155.04800415039062, "ICAO": "PHTO", "Name": "Hilo International Airport", "Country": "United States"}, "FSM": {"Latitude": 35.33660125732422, "Longitude": -94.36740112304688, "ICAO": "KFSM", "Name": "Fort Smith Regional Airport", "Country": "United States"}, "GFK": {"Latitude": 47.949299, "Longitude": -97.176102, "ICAO": "KGFK", "Name": "Grand Forks International Airport", "Country": "United States"}, "PRC": {"Latitude": 34.65449905, "Longitude": -112.4199982, "ICAO": "KPRC", "Name": "Ernest A. Love Field", "Country": "United States"}, "TTN": {"Latitude": 40.27669906616211, "Longitude": -74.8134994506836, "ICAO": "KTTN", "Name": "Trenton Mercer Airport", "Country": "United States"}, "BOS": {"Latitude": 42.36429977, "Longitude": -71.00520325, "ICAO": "KBOS", "Name": "General Edward Lawrence Logan International Airport", "Country": "United States"}, "OAK": {"Latitude": 37.721298, "Longitude": -122.221001, "ICAO": "KOAK", "Name": "Metropolitan Oakland International Airport", "Country": "United States"}, "OMA": {"Latitude": 41.3032, "Longitude": -95.894096, "ICAO": "KOMA", "Name": "Eppley Airfield", "Country": "United States"}, "OGG": {"Latitude": 20.8986, "Longitude": -156.429993, "ICAO": "PHOG", "Name": "Kahului Airport", "Country": "United States"}, "ICT": {"Latitude": 37.649899, "Longitude": -97.433098, "ICAO": "KICT", "Name": "Wichita Eisenhower National Airport", "Country": "United States"}, "MCI": {"Latitude": 39.2976, "Longitude": -94.713898, "ICAO": "KMCI", "Name": "Kansas City International Airport", "Country": "United States"}, "MSN": {"Latitude": 43.13990020751953, "Longitude": -89.3375015258789, "ICAO": "KMSN", "Name": "Dane County Regional Truax Field", "Country": "United States"}, "DLG": {"Latitude": 59.04470062, "Longitude": -158.50500490000005, "ICAO": "PADL", "Name": "Dillingham Airport", "Country": "United States"}, "PHX": {"Latitude": 33.43429946899414, "Longitude": -112.01200103759766, "ICAO": "KPHX", "Name": "Phoenix Sky Harbor International Airport", "Country": "United States"}, "BGR": {"Latitude": 44.80739974975586, "Longitude": -68.82810211181639, "ICAO": "KBGR", "Name": "Bangor International Airport", "Country": "United States"}, "GGG": {"Latitude": 32.38399887084961, "Longitude": -94.71150207519531, "ICAO": "KGGG", "Name": "East Texas Regional Airport", "Country": "United States"}, "GEG": {"Latitude": 47.61989974975586, "Longitude": -117.53399658203124, "ICAO": "KGEG", "Name": "Spokane International Airport", "Country": "United States"}, "SFO": {"Latitude": 37.61899948120117, "Longitude": -122.375, "ICAO": "KSFO", "Name": "San Francisco International Airport", "Country": "United States"}, "GNV": {"Latitude": 29.6900997162, "Longitude": -82.27179718020001, "ICAO": "KGNV", "Name": "Gainesville Regional Airport", "Country": "United States"}, "MEM": {"Latitude": 35.04240036010742, "Longitude": -89.97669982910156, "ICAO": "KMEM", "Name": "Memphis International Airport", "Country": "United States"}, "LAX": {"Latitude": 33.94250107, "Longitude": -118.4079971, "ICAO": "KLAX", "Name": "Los Angeles International Airport", "Country": "United States"}, "CLE": {"Latitude": 41.411701202399996, "Longitude": -81.8498001099, "ICAO": "KCLE", "Name": "Cleveland Hopkins International Airport", "Country": "United States"}, "CVG": {"Latitude": 39.0488014221, "Longitude": -84.6678009033, "ICAO": "KCVG", "Name": "Cincinnati Northern Kentucky International Airport", "Country": "United States"}, "JNU": {"Latitude": 58.35499954223633, "Longitude": -134.57600402832028, "ICAO": "PAJN", "Name": "Juneau International Airport", "Country": "United States"}, "LFT": {"Latitude": 30.20529938, "Longitude": -91.98760223, "ICAO": "KLFT", "Name": "Lafayette Regional Airport", "Country": "United States"}, "EWR": {"Latitude": 40.69250106811523, "Longitude": -74.168701171875, "ICAO": "KEWR", "Name": "Newark Liberty International Airport", "Country": "United States"}, "BOI": {"Latitude": 43.5644, "Longitude": -116.223, "ICAO": "KBOI", "Name": "Boise Air Terminal/Gowen Field", "Country": "United States"}, "GCK": {"Latitude": 37.9275016785, "Longitude": -100.72399902299999, "ICAO": "KGCK", "Name": "Garden City Regional Airport", "Country": "United States"}, "MOT": {"Latitude": 48.2593994140625, "Longitude": -101.27999877929688, "ICAO": "KMOT", "Name": "Minot International Airport", "Country": "United States"}, "DAL": {"Latitude": 32.847099, "Longitude": -96.851799, "ICAO": "KDAL", "Name": "Dallas Love Field", "Country": "United States"}, "HLN": {"Latitude": 46.6068000793457, "Longitude": -111.98300170898438, "ICAO": "KHLN", "Name": "Helena Regional Airport", "Country": "United States"}, "LCH": {"Latitude": 30.12610054016113, "Longitude": -93.22329711914062, "ICAO": "KLCH", "Name": "Lake Charles Regional Airport", "Country": "United States"}, "KOA": {"Latitude": 19.738783, "Longitude": -156.045603, "ICAO": "PHKO", "Name": "Ellison Onizuka Kona International At Keahole Airport", "Country": "United States"}, "MYR": {"Latitude": 33.6796989441, "Longitude": -78.9282989502, "ICAO": "KMYR", "Name": "Myrtle Beach International Airport", "Country": "United States"}, "ACK": {"Latitude": 41.25310135, "Longitude": -70.06020355, "ICAO": "KACK", "Name": "Nantucket Memorial Airport", "Country": "United States"}, "DCA": {"Latitude": 38.8521, "Longitude": -77.037697, "ICAO": "KDCA", "Name": "Ronald Reagan Washington National Airport", "Country": "United States"}, "ACY": {"Latitude": 39.45759963989258, "Longitude": -74.57720184326172, "ICAO": "KACY", "Name": "Atlantic City International Airport", "Country": "United States"}, "PUB": {"Latitude": 38.289100646972656, "Longitude": -104.49700164794922, "ICAO": "KPUB", "Name": "Pueblo Memorial Airport", "Country": "United States"}, "ADQ": {"Latitude": 57.75, "Longitude": -152.4940033, "ICAO": "PADQ", "Name": "Kodiak Airport", "Country": "United States"}, "FLL": {"Latitude": 26.072599, "Longitude": -80.152702, "ICAO": "KFLL", "Name": "Fort Lauderdale Hollywood International Airport", "Country": "United States"}, "INL": {"Latitude": 48.566200256347656, "Longitude": -93.4030990600586, "ICAO": "KINL", "Name": "Falls International Airport", "Country": "United States"}, "SLC": {"Latitude": 40.78839874267578, "Longitude": -111.97799682617188, "ICAO": "KSLC", "Name": "Salt Lake City International Airport", "Country": "United States"}, "MDT": {"Latitude": 40.1935005188, "Longitude": -76.7633972168, "ICAO": "KMDT", "Name": "Harrisburg International Airport", "Country": "United States"}, "LNK": {"Latitude": 40.85100173950195, "Longitude": -96.75920104980469, "ICAO": "KLNK", "Name": "Lincoln Airport", "Country": "United States"}, "LAN": {"Latitude": 42.77870178222656, "Longitude": -84.58740234375, "ICAO": "KLAN", "Name": "Capital City Airport", "Country": "United States"}, "IAH": {"Latitude": 29.98439979553223, "Longitude": -95.34140014648438, "ICAO": "KIAH", "Name": "George Bush Intercontinental Houston Airport", "Country": "United States"}, "BFL": {"Latitude": 35.43360138, "Longitude": -119.0569992, "ICAO": "KBFL", "Name": "Meadows Field", "Country": "United States"}, "ELP": {"Latitude": 31.80719948, "Longitude": -106.37799840000002, "ICAO": "KELP", "Name": "El Paso International Airport", "Country": "United States"}, "HRL": {"Latitude": 26.228500366210927, "Longitude": -97.65440368652344, "ICAO": "KHRL", "Name": "Valley International Airport", "Country": "United States"}, "CAE": {"Latitude": 33.93880081176758, "Longitude": -81.11949920654297, "ICAO": "KCAE", "Name": "Columbia Metropolitan Airport", "Country": "United States"}, "PNS": {"Latitude": 30.473400115967003, "Longitude": -87.18659973144501, "ICAO": "KPNS", "Name": "Pensacola Regional Airport", "Country": "United States"}, "HOU": {"Latitude": 29.64539909, "Longitude": -95.27890015, "ICAO": "KHOU", "Name": "William P Hobby Airport", "Country": "United States"}, "PIT": {"Latitude": 40.49150085, "Longitude": -80.23290253, "ICAO": "KPIT", "Name": "Pittsburgh International Airport", "Country": "United States"}, "BRW": {"Latitude": 71.285402, "Longitude": -156.766008, "ICAO": "PABR", "Name": "Wiley Post Will Rogers Memorial Airport", "Country": "United States"}, "MIA": {"Latitude": 25.79319953918457, "Longitude": -80.29060363769531, "ICAO": "KMIA", "Name": "Miami International Airport", "Country": "United States"}, "SEA": {"Latitude": 47.449001, "Longitude": -122.308998, "ICAO": "KSEA", "Name": "Seattle Tacoma International Airport", "Country": "United States"}, "CHA": {"Latitude": 35.03530120849609, "Longitude": -85.20379638671875, "ICAO": "KCHA", "Name": "Lovell Field", "Country": "United States"}, "JAN": {"Latitude": 32.3111991882, "Longitude": -90.0758972168, "ICAO": "KJAN", "Name": "Jackson-Medgar Wiley Evers International Airport", "Country": "United States"}, "LGB": {"Latitude": 33.81769943, "Longitude": -118.1520004, "ICAO": "KLGB", "Name": "Long Beach /Daugherty Field/ Airport", "Country": "United States"}, "IND": {"Latitude": 39.7173, "Longitude": -86.294403, "ICAO": "KIND", "Name": "Indianapolis International Airport", "Country": "United States"}, "HPN": {"Latitude": 41.06700134277344, "Longitude": -73.70760345458984, "ICAO": "KHPN", "Name": "Westchester County Airport", "Country": "United States"}, "YUM": {"Latitude": 32.65660095, "Longitude": -114.6060028, "ICAO": "KNYL", "Name": "Yuma MCAS/Yuma International Airport", "Country": "United States"}, "DLH": {"Latitude": 46.8420982361, "Longitude": -92.19360351559999, "ICAO": "KDLH", "Name": "Duluth International Airport", "Country": "United States"}, "BET": {"Latitude": 60.77980042, "Longitude": -161.8379974, "ICAO": "PABE", "Name": "Bethel Airport", "Country": "United States"}, "LIH": {"Latitude": 21.97599983215332, "Longitude": -159.33900451660156, "ICAO": "PHLI", "Name": "Lihue Airport", "Country": "United States"}, "RIC": {"Latitude": 37.50519943237305, "Longitude": -77.3197021484375, "ICAO": "KRIC", "Name": "Richmond International Airport", "Country": "United States"}, "SHV": {"Latitude": 32.446602, "Longitude": -93.8256, "ICAO": "KSHV", "Name": "Shreveport Regional Airport", "Country": "United States"}, "CDV": {"Latitude": 60.49179839999999, "Longitude": -145.4779968, "ICAO": "PACV", "Name": "Merle K (Mudhole) Smith Airport", "Country": "United States"}, "ORF": {"Latitude": 36.89459991455078, "Longitude": -76.20120239257812, "ICAO": "KORF", "Name": "Norfolk International Airport", "Country": "United States"}, "BPT": {"Latitude": 29.9507999420166, "Longitude": -94.02069854736328, "ICAO": "KBPT", "Name": "Southeast Texas Regional Airport", "Country": "United States"}, "SAV": {"Latitude": 32.12760162, "Longitude": -81.20210266, "ICAO": "KSAV", "Name": "Savannah Hilton Head International Airport", "Country": "United States"}, "OME": {"Latitude": 64.51219940185547, "Longitude": -165.44500732421875, "ICAO": "PAOM", "Name": "Nome Airport", "Country": "United States"}, "PIE": {"Latitude": 27.91020012, "Longitude": -82.68740082, "ICAO": "KPIE", "Name": "St Petersburg Clearwater International Airport", "Country": "United States"}, "SCC": {"Latitude": 70.19470215, "Longitude": -148.46499630000002, "ICAO": "PASC", "Name": "Deadhorse Airport", "Country": "United States"}, "SAT": {"Latitude": 29.533700942993164, "Longitude": -98.46980285644531, "ICAO": "KSAT", "Name": "San Antonio International Airport", "Country": "United States"}, "ROC": {"Latitude": 43.118900299072266, "Longitude": -77.67240142822266, "ICAO": "KROC", "Name": "Greater Rochester International Airport", "Country": "United States"}, "RDU": {"Latitude": 35.877601623535156, "Longitude": -78.7874984741211, "ICAO": "KRDU", "Name": "Raleigh Durham International Airport", "Country": "United States"}, "DAY": {"Latitude": 39.90240097045898, "Longitude": -84.21939849853516, "ICAO": "KDAY", "Name": "James M Cox Dayton International Airport", "Country": "United States"}, "IAG": {"Latitude": 43.1072998046875, "Longitude": -78.94619750976562, "ICAO": "KIAG", "Name": "Niagara Falls International Airport", "Country": "United States"}, "PHF": {"Latitude": 37.13190079, "Longitude": -76.49299622, "ICAO": "KPHF", "Name": "Newport News Williamsburg International Airport", "Country": "United States"}, "TUS": {"Latitude": 32.116100311279304, "Longitude": -110.94100189208984, "ICAO": "KTUS", "Name": "Tucson International Airport", "Country": "United States"}, "PVD": {"Latitude": 41.732601, "Longitude": -71.42040300000002, "ICAO": "KPVD", "Name": "Theodore Francis Green State Airport", "Country": "United States"}, "BUR": {"Latitude": 34.200698852539055, "Longitude": -118.35900115966795, "ICAO": "KBUR", "Name": "Bob Hope Airport", "Country": "United States"}, "DTW": {"Latitude": 42.212398529052734, "Longitude": -83.35340118408203, "ICAO": "KDTW", "Name": "Detroit Metropolitan Wayne County Airport", "Country": "United States"}, "TPA": {"Latitude": 27.975500106811523, "Longitude": -82.533203125, "ICAO": "KTPA", "Name": "Tampa International Airport", "Country": "United States"}, "HIB": {"Latitude": 47.38660049, "Longitude": -92.83899689, "ICAO": "KHIB", "Name": "Range Regional Airport", "Country": "United States"}, "MAF": {"Latitude": 31.9424991607666, "Longitude": -102.2020034790039, "ICAO": "KMAF", "Name": "Midland International Airport", "Country": "United States"}, "GRB": {"Latitude": 44.48509979248047, "Longitude": -88.12960052490234, "ICAO": "KGRB", "Name": "Austin Straubel International Airport", "Country": "United States"}, "AGS": {"Latitude": 33.36989974975586, "Longitude": -81.9645004272461, "ICAO": "KAGS", "Name": "Augusta Regional At Bush Field", "Country": "United States"}, "LIT": {"Latitude": 34.729400634799994, "Longitude": -92.22429656979999, "ICAO": "KLIT", "Name": "Bill & Hillary Clinton National Airport/Adams Field", "Country": "United States"}, "SWF": {"Latitude": 41.50410079956055, "Longitude": -74.10479736328125, "ICAO": "KSWF", "Name": "Stewart International Airport", "Country": "United States"}, "DFW": {"Latitude": 32.896801, "Longitude": -97.038002, "ICAO": "KDFW", "Name": "Dallas Fort Worth International Airport", "Country": "United States"}, "MLB": {"Latitude": 28.10280036926269, "Longitude": -80.64530181884766, "ICAO": "KMLB", "Name": "Melbourne International Airport", "Country": "United States"}, "AUS": {"Latitude": 30.194499969482425, "Longitude": -97.6698989868164, "ICAO": "KAUS", "Name": "Austin Bergstrom International Airport", "Country": "United States"}, "LCK": {"Latitude": 39.813801, "Longitude": -82.927803, "ICAO": "KLCK", "Name": "Rickenbacker International Airport", "Country": "United States"}, "MQT": {"Latitude": 46.3535995483, "Longitude": -87.39540100100002, "ICAO": "KSAW", "Name": "Sawyer International Airport", "Country": "United States"}, "TYS": {"Latitude": 35.81100082, "Longitude": -83.99400329999997, "ICAO": "KTYS", "Name": "McGhee Tyson Airport", "Country": "United States"}, "STL": {"Latitude": 38.748697, "Longitude": -90.370003, "ICAO": "KSTL", "Name": "St Louis Lambert International Airport", "Country": "United States"}, "SPS": {"Latitude": 33.9888, "Longitude": -98.491898, "ICAO": "KSPS", "Name": "Sheppard Air Force Base-Wichita Falls Municipal Airport", "Country": "United States"}, "ATL": {"Latitude": 33.6367, "Longitude": -84.428101, "ICAO": "KATL", "Name": "Hartsfield Jackson Atlanta International Airport", "Country": "United States"}, "GRR": {"Latitude": 42.88079834, "Longitude": -85.52279663, "ICAO": "KGRR", "Name": "Gerald R. Ford International Airport", "Country": "United States"}, "FAT": {"Latitude": 36.77619934082031, "Longitude": -119.71800231933594, "ICAO": "KFAT", "Name": "Fresno Yosemite International Airport", "Country": "United States"}, "BNA": {"Latitude": 36.1245002746582, "Longitude": -86.6781997680664, "ICAO": "KBNA", "Name": "Nashville International Airport", "Country": "United States"}, "LRD": {"Latitude": 27.543800354003906, "Longitude": -99.46160125732422, "ICAO": "KLRD", "Name": "Laredo International Airport", "Country": "United States"}, "OTZ": {"Latitude": 66.88469696, "Longitude": -162.598999, "ICAO": "PAOT", "Name": "Ralph Wien Memorial Airport", "Country": "United States"}, "LGA": {"Latitude": 40.77719879, "Longitude": -73.87259674, "ICAO": "KLGA", "Name": "La Guardia Airport", "Country": "United States"}, "TLH": {"Latitude": 30.396499633789066, "Longitude": -84.35030364990234, "ICAO": "KTLH", "Name": "Tallahassee Regional Airport", "Country": "United States"}, "ACT": {"Latitude": 31.61129951477051, "Longitude": -97.23049926757812, "ICAO": "KACT", "Name": "Waco Regional Airport", "Country": "United States"}, "SJT": {"Latitude": 31.35770034790039, "Longitude": -100.49600219726562, "ICAO": "KSJT", "Name": "San Angelo Regional Mathis Field", "Country": "United States"}, "BTV": {"Latitude": 44.471900939899996, "Longitude": -73.15329742429998, "ICAO": "KBTV", "Name": "Burlington International Airport", "Country": "United States"}, "JAX": {"Latitude": 30.49410057067871, "Longitude": -81.68789672851562, "ICAO": "KJAX", "Name": "Jacksonville International Airport", "Country": "United States"}, "DRO": {"Latitude": 37.1515007019, "Longitude": -107.75399780299999, "ICAO": "KDRO", "Name": "Durango La Plata County Airport", "Country": "United States"}, "IAD": {"Latitude": 38.94449997, "Longitude": -77.45580292, "ICAO": "KIAD", "Name": "Washington Dulles International Airport", "Country": "United States"}, "CLL": {"Latitude": 30.58860016, "Longitude": -96.36380005, "ICAO": "KCLL", "Name": "Easterwood Field", "Country": "United States"}, "MKE": {"Latitude": 42.94720077514648, "Longitude": -87.89659881591797, "ICAO": "KMKE", "Name": "General Mitchell International Airport", "Country": "United States"}, "ABI": {"Latitude": 32.4113006592, "Longitude": -99.68190002440001, "ICAO": "KABI", "Name": "Abilene Regional Airport", "Country": "United States"}, "COU": {"Latitude": 38.81809997558594, "Longitude": -92.21959686279295, "ICAO": "KCOU", "Name": "Columbia Regional Airport", "Country": "United States"}, "PDX": {"Latitude": 45.58869934, "Longitude": -122.5979996, "ICAO": "KPDX", "Name": "Portland International Airport", "Country": "United States"}, "PBI": {"Latitude": 26.68320083618164, "Longitude": -80.09559631347656, "ICAO": "KPBI", "Name": "Palm Beach International Airport", "Country": "United States"}, "OGS": {"Latitude": 44.681900024399994, "Longitude": -75.46549987790002, "ICAO": "KOGS", "Name": "Ogdensburg International Airport", "Country": "United States"}, "HNL": {"Latitude": 21.32062, "Longitude": -157.924228, "ICAO": "PHNL", "Name": "Daniel K Inouye International Airport", "Country": "United States"}, "DSM": {"Latitude": 41.53400039672852, "Longitude": -93.66310119628906, "ICAO": "KDSM", "Name": "Des Moines International Airport", "Country": "United States"}, "EWN": {"Latitude": 35.0730018616, "Longitude": -77.04290008539998, "ICAO": "KEWN", "Name": "Coastal Carolina Regional Airport", "Country": "United States"}, "SAN": {"Latitude": 32.7336006165, "Longitude": -117.190002441, "ICAO": "KSAN", "Name": "San Diego International Airport", "Country": "United States"}, "MLU": {"Latitude": 32.51089859008789, "Longitude": -92.0376968383789, "ICAO": "KMLU", "Name": "Monroe Regional Airport", "Country": "United States"}, "ONT": {"Latitude": 34.05599975585937, "Longitude": -117.60099792480469, "ICAO": "KONT", "Name": "Ontario International Airport", "Country": "United States"}, "ROW": {"Latitude": 33.30160140991211, "Longitude": -104.53099822998048, "ICAO": "KROW", "Name": "Roswell International Air Center Airport", "Country": "United States"}, "BRO": {"Latitude": 25.90679931640625, "Longitude": -97.4259033203125, "ICAO": "KBRO", "Name": "Brownsville South Padre Island International Airport", "Country": "United States"}, "DHN": {"Latitude": 31.3213005065918, "Longitude": -85.44960021972656, "ICAO": "KDHN", "Name": "Dothan Regional Airport", "Country": "United States"}, "CRP": {"Latitude": 27.77039909362793, "Longitude": -97.5011978149414, "ICAO": "KCRP", "Name": "Corpus Christi International Airport", "Country": "United States"}, "SYR": {"Latitude": 43.11119842529297, "Longitude": -76.1063003540039, "ICAO": "KSYR", "Name": "Syracuse Hancock International Airport", "Country": "United States"}, "MDW": {"Latitude": 41.785999, "Longitude": -87.752403, "ICAO": "KMDW", "Name": "Chicago Midway International Airport", "Country": "United States"}, "SJC": {"Latitude": 37.362598, "Longitude": -121.929001, "ICAO": "KSJC", "Name": "Norman Y. Mineta San Jose International Airport", "Country": "United States"}, "HOB": {"Latitude": 32.6875, "Longitude": -103.2170029, "ICAO": "KHOB", "Name": "Lea County Regional Airport", "Country": "United States"}, "DEN": {"Latitude": 39.861698150635, "Longitude": -104.672996521, "ICAO": "KDEN", "Name": "Denver International Airport", "Country": "United States"}, "PHL": {"Latitude": 39.87189865112305, "Longitude": -75.24109649658203, "ICAO": "KPHL", "Name": "Philadelphia International Airport", "Country": "United States"}, "SUX": {"Latitude": 42.40259933, "Longitude": -96.38439941, "ICAO": "KSUX", "Name": "Sioux Gateway Col. Bud Day Field", "Country": "United States"}, "CMH": {"Latitude": 39.998001, "Longitude": -82.891899, "ICAO": "KCMH", "Name": "John Glenn Columbus International Airport", "Country": "United States"}, "TXK": {"Latitude": 33.45370101928711, "Longitude": -93.99099731445312, "ICAO": "KTXK", "Name": "Texarkana Regional Webb Field", "Country": "United States"}, "PBG": {"Latitude": 44.6509017944336, "Longitude": -73.46810150146484, "ICAO": "KPBG", "Name": "Plattsburgh International Airport", "Country": "United States"}, "ANC": {"Latitude": 61.174400329589844, "Longitude": -149.99600219726562, "ICAO": "PANC", "Name": "Ted Stevens Anchorage International Airport", "Country": "United States"}, "GRK": {"Latitude": 31.067199706999997, "Longitude": -97.8289031982, "ICAO": "KGRK", "Name": "Robert Gray  Army Air Field Airport", "Country": "United States"}, "BLI": {"Latitude": 48.79280090332031, "Longitude": -122.53800201416016, "ICAO": "KBLI", "Name": "Bellingham International Airport", "Country": "United States"}, "MOB": {"Latitude": 30.691200256348, "Longitude": -88.242797851562, "ICAO": "KMOB", "Name": "Mobile Regional Airport", "Country": "United States"}, "SAF": {"Latitude": 35.617099761999995, "Longitude": -106.08899688700001, "ICAO": "KSAF", "Name": "Santa Fe Municipal Airport", "Country": "United States"}, "BLV": {"Latitude": 38.5452, "Longitude": -89.835197, "ICAO": "KBLV", "Name": "Scott AFB/Midamerica Airport", "Country": "United States"}, "DRT": {"Latitude": 29.3742008209, "Longitude": -100.92700195299999, "ICAO": "KDRT", "Name": "Del Rio International Airport", "Country": "United States"}, "RSW": {"Latitude": 26.53619956970215, "Longitude": -81.75520324707031, "ICAO": "KRSW", "Name": "Southwest Florida International Airport", "Country": "United States"}, "AKN": {"Latitude": 58.67679977, "Longitude": -156.6490021, "ICAO": "PAKN", "Name": "King Salmon Airport", "Country": "United States"}, "JFK": {"Latitude": 40.63980103, "Longitude": -73.77890015, "ICAO": "KJFK", "Name": "John F Kennedy International Airport", "Country": "United States"}, "CYS": {"Latitude": 41.15570068, "Longitude": -104.8119965, "ICAO": "KCYS", "Name": "Cheyenne Regional Jerry Olson Field", "Country": "United States"}, "SCK": {"Latitude": 37.894199371338, "Longitude": -121.2379989624, "ICAO": "KSCK", "Name": "Stockton Metropolitan Airport", "Country": "United States"}, "CHS": {"Latitude": 32.89860153, "Longitude": -80.04049683, "ICAO": "KCHS", "Name": "Charleston Air Force Base-International Airport", "Country": "United States"}, "RNO": {"Latitude": 39.49909973144531, "Longitude": -119.76799774169922, "ICAO": "KRNO", "Name": "Reno Tahoe International Airport", "Country": "United States"}, "KTN": {"Latitude": 55.35559845, "Longitude": -131.7140045, "ICAO": "PAKT", "Name": "Ketchikan International Airport", "Country": "United States"}, "BHM": {"Latitude": 33.56290054, "Longitude": -86.75350189, "ICAO": "KBHM", "Name": "Birmingham-Shuttlesworth International Airport", "Country": "United States"}, "SMF": {"Latitude": 38.69540023803711, "Longitude": -121.59100341796876, "ICAO": "KSMF", "Name": "Sacramento International Airport", "Country": "United States"}, "COS": {"Latitude": 38.805801, "Longitude": -104.700996, "ICAO": "KCOS", "Name": "City of Colorado Springs Municipal Airport", "Country": "United States"}, "BUF": {"Latitude": 42.94049835, "Longitude": -78.73220062, "ICAO": "KBUF", "Name": "Buffalo Niagara International Airport", "Country": "United States"}, "PAE": {"Latitude": 47.90629959, "Longitude": -122.2819977, "ICAO": "KPAE", "Name": "Snohomish County (Paine Field) Airport", "Country": "United States"}, "CDC": {"Latitude": 37.70100021362305, "Longitude": -113.0989990234375, "ICAO": "KCDC", "Name": "Cedar City Regional Airport", "Country": "United States"}, "BDL": {"Latitude": 41.9388999939, "Longitude": -72.68319702149999, "ICAO": "KBDL", "Name": "Bradley International Airport", "Country": "United States"}, "MFE": {"Latitude": 26.17580032, "Longitude": -98.23860168, "ICAO": "KMFE", "Name": "Mc Allen Miller International Airport", "Country": "United States"}, "LBB": {"Latitude": 33.663601, "Longitude": -101.822998, "ICAO": "KLBB", "Name": "Lubbock Preston Smith International Airport", "Country": "United States"}, "ORD": {"Latitude": 41.9786, "Longitude": -87.9048, "ICAO": "KORD", "Name": "Chicago O'Hare International Airport", "Country": "United States"}, "FAI": {"Latitude": 64.81510162, "Longitude": -147.85600280000003, "ICAO": "PAFA", "Name": "Fairbanks International Airport", "Country": "United States"}, "PSP": {"Latitude": 33.829700469970696, "Longitude": -116.50700378417969, "ICAO": "KPSP", "Name": "Palm Springs International Airport", "Country": "United States"}, "AMA": {"Latitude": 35.219398, "Longitude": -101.706001, "ICAO": "KAMA", "Name": "Rick Husband Amarillo International Airport", "Country": "United States"}, "ILM": {"Latitude": 34.27059936523437, "Longitude": -77.90260314941406, "ICAO": "KILM", "Name": "Wilmington International Airport", "Country": "United States"}, "BTR": {"Latitude": 30.533199, "Longitude": -91.149597, "ICAO": "KBTR", "Name": "Baton Rouge Metropolitan Airport", "Country": "United States"}, "TYR": {"Latitude": 32.35409927368164, "Longitude": -95.40239715576172, "ICAO": "KTYR", "Name": "Tyler Pounds Regional Airport", "Country": "United States"}, "BWI": {"Latitude": 39.1754, "Longitude": -76.668297, "ICAO": "KBWI", "Name": "Baltimore/Washington International Thurgood Marshall Airport", "Country": "United States"}, "AEX": {"Latitude": 31.32740020751953, "Longitude": -92.54979705810548, "ICAO": "KAEX", "Name": "Alexandria International Airport", "Country": "United States"}, "CDB": {"Latitude": 55.20610046386719, "Longitude": -162.72500610351562, "ICAO": "PACD", "Name": "Cold Bay Airport", "Country": "United States"}, "TUL": {"Latitude": 36.19839859008789, "Longitude": -95.88809967041016, "ICAO": "KTUL", "Name": "Tulsa International Airport", "Country": "United States"}, "SIT": {"Latitude": 57.04710006713867, "Longitude": -135.36199951171878, "ICAO": "PASI", "Name": "Sitka Rocky Gutierrez Airport", "Country": "United States"}, "ISP": {"Latitude": 40.79520035, "Longitude": -73.10019684, "ICAO": "KISP", "Name": "Long Island Mac Arthur Airport", "Country": "United States"}, "MSP": {"Latitude": 44.882, "Longitude": -93.221802, "ICAO": "KMSP", "Name": "Minneapolis-St Paul International/Wold-Chamberlain Airport", "Country": "United States"}, "MSY": {"Latitude": 29.99340057373047, "Longitude": -90.25800323486328, "ICAO": "KMSY", "Name": "Louis Armstrong New Orleans International Airport", "Country": "United States"}, "PWM": {"Latitude": 43.64619827, "Longitude": -70.30930328, "ICAO": "KPWM", "Name": "Portland International Jetport Airport", "Country": "United States"}, "OKC": {"Latitude": 35.39310073852539, "Longitude": -97.60070037841795, "ICAO": "KOKC", "Name": "Will Rogers World Airport", "Country": "United States"}, "ALB": {"Latitude": 42.74829864501953, "Longitude": -73.80169677734375, "ICAO": "KALB", "Name": "Albany International Airport", "Country": "United States"}, "SNA": {"Latitude": 33.67570114, "Longitude": -117.8679962, "ICAO": "KSNA", "Name": "John Wayne Airport-Orange County Airport", "Country": "United States"}, "CPR": {"Latitude": 42.908001, "Longitude": -106.463997, "ICAO": "KCPR", "Name": "Casper-Natrona County International Airport", "Country": "United States"}, "VPS": {"Latitude": 30.4832, "Longitude": -86.525398, "ICAO": "KVPS", "Name": "Destin-Ft Walton Beach Airport", "Country": "United States"}, "EYW": {"Latitude": 24.556100845336914, "Longitude": -81.75959777832031, "ICAO": "KEYW", "Name": "Key West International Airport", "Country": "United States"}, "CLT": {"Latitude": 35.2140007019043, "Longitude": -80.94309997558594, "ICAO": "KCLT", "Name": "Charlotte Douglas International Airport", "Country": "United States"}, "LAS": {"Latitude": 36.08010101, "Longitude": -115.1520004, "ICAO": "KLAS", "Name": "McCarran International Airport", "Country": "United States"}, "MCO": {"Latitude": 28.429399490356445, "Longitude": -81.30899810791016, "ICAO": "KMCO", "Name": "Orlando International Airport", "Country": "United States"}, "GTF": {"Latitude": 47.48199844, "Longitude": -111.3710022, "ICAO": "KGTF", "Name": "Great Falls International Airport", "Country": "United States"}, "PUW": {"Latitude": 46.7439, "Longitude": -117.110001, "ICAO": "KPUW", "Name": "Pullman Moscow Regional Airport", "Country": "United States"}, "LWS": {"Latitude": 46.3745002746582, "Longitude": -117.01499938964844, "ICAO": "KLWS", "Name": "Lewiston Nez Perce County Airport", "Country": "United States"}, "ELM": {"Latitude": 42.1599006652832, "Longitude": -76.8916015625, "ICAO": "KELM", "Name": "Elmira Corning Regional Airport", "Country": "United States"}, "ITH": {"Latitude": 42.49100112915039, "Longitude": -76.4583969116211, "ICAO": "KITH", "Name": "Ithaca Tompkins Regional Airport", "Country": "United States"}, "MRY": {"Latitude": 36.58700180053711, "Longitude": -121.84300231933594, "ICAO": "KMRY", "Name": "Monterey Peninsula Airport", "Country": "United States"}, "SBA": {"Latitude": 34.42620087, "Longitude": -119.8399963, "ICAO": "KSBA", "Name": "Santa Barbara Municipal Airport", "Country": "United States"}, "DAB": {"Latitude": 29.179899, "Longitude": -81.058098, "ICAO": "KDAB", "Name": "Daytona Beach International Airport", "Country": "United States"}, "HVN": {"Latitude": 41.26369858, "Longitude": -72.88680267, "ICAO": "KHVN", "Name": "Tweed New Haven Airport", "Country": "United States"}, "AVL": {"Latitude": 35.43619918823242, "Longitude": -82.54180145263672, "ICAO": "KAVL", "Name": "Asheville Regional Airport", "Country": "United States"}, "GSO": {"Latitude": 36.097801208496094, "Longitude": -79.93730163574219, "ICAO": "KGSO", "Name": "Piedmont Triad International Airport", "Country": "United States"}, "FSD": {"Latitude": 43.5820007324, "Longitude": -96.741897583, "ICAO": "KFSD", "Name": "Joe Foss Field Airport", "Country": "United States"}, "MHT": {"Latitude": 42.932598, "Longitude": -71.435699, "ICAO": "KMHT", "Name": "Manchester-Boston Regional Airport", "Country": "United States"}, "SDF": {"Latitude": 38.1744, "Longitude": -85.736, "ICAO": "KSDF", "Name": "Louisville International Standiford Field", "Country": "United States"}, "CHO": {"Latitude": 38.13859939575195, "Longitude": -78.4529037475586, "ICAO": "KCHO", "Name": "Charlottesville Albemarle Airport", "Country": "United States"}, "ROA": {"Latitude": 37.3255, "Longitude": -79.975403, "ICAO": "KROA", "Name": "Roanoke\u2013Blacksburg Regional Airport", "Country": "United States"}, "LEX": {"Latitude": 38.0364990234375, "Longitude": -84.60590362548828, "ICAO": "KLEX", "Name": "Blue Grass Airport", "Country": "United States"}, "EVV": {"Latitude": 38.0369987488, "Longitude": -87.53240203860001, "ICAO": "KEVV", "Name": "Evansville Regional Airport", "Country": "United States"}, "ABQ": {"Latitude": 35.040199, "Longitude": -106.609001, "ICAO": "KABQ", "Name": "Albuquerque International Sunport", "Country": "United States"}, "BZN": {"Latitude": 45.77750015, "Longitude": -111.1529999, "ICAO": "KBZN", "Name": "Gallatin Field", "Country": "United States"}, "BIL": {"Latitude": 45.807701110839844, "Longitude": -108.54299926757812, "ICAO": "KBIL", "Name": "Billings Logan International Airport", "Country": "United States"}, "BTM": {"Latitude": 45.95479965209961, "Longitude": -112.49700164794922, "ICAO": "KBTM", "Name": "Bert Mooney Airport", "Country": "United States"}, "TVC": {"Latitude": 44.74140167236328, "Longitude": -85.58219909667969, "ICAO": "KTVC", "Name": "Cherry Capital Airport", "Country": "United States"}, "JAC": {"Latitude": 43.6072998046875, "Longitude": -110.73799896240234, "ICAO": "KJAC", "Name": "Jackson Hole Airport", "Country": "United States"}, "RFD": {"Latitude": 42.19540023803711, "Longitude": -89.09719848632812, "ICAO": "KRFD", "Name": "Chicago Rockford International Airport", "Country": "United States"}, "GSP": {"Latitude": 34.895698547399995, "Longitude": -82.2189025879, "ICAO": "KGSP", "Name": "Greenville Spartanburg International Airport", "Country": "United States"}, "BMI": {"Latitude": 40.47710037, "Longitude": -88.91590118, "ICAO": "KBMI", "Name": "Central Illinois Regional Airport at Bloomington-Normal", "Country": "United States"}, "GPT": {"Latitude": 30.40730094909668, "Longitude": -89.07009887695312, "ICAO": "KGPT", "Name": "Gulfport Biloxi International Airport", "Country": "United States"}, "AZO": {"Latitude": 42.234901428222656, "Longitude": -85.5521011352539, "ICAO": "KAZO", "Name": "Kalamazoo Battle Creek International Airport", "Country": "United States"}, "TOL": {"Latitude": 41.58679962, "Longitude": -83.80780029, "ICAO": "KTOL", "Name": "Toledo Express Airport", "Country": "United States"}, "FWA": {"Latitude": 40.97850037, "Longitude": -85.19509888, "ICAO": "KFWA", "Name": "Fort Wayne International Airport", "Country": "United States"}, "DEC": {"Latitude": 39.83459854125977, "Longitude": -88.8656997680664, "ICAO": "KDEC", "Name": "Decatur Airport", "Country": "United States"}, "CID": {"Latitude": 41.88470077514648, "Longitude": -91.71080017089844, "ICAO": "KCID", "Name": "The Eastern Iowa Airport", "Country": "United States"}, "LSE": {"Latitude": 43.879002, "Longitude": -91.256699, "ICAO": "KLSE", "Name": "La Crosse Municipal Airport", "Country": "United States"}, "CWA": {"Latitude": 44.7775993347, "Longitude": -89.6668014526, "ICAO": "KCWA", "Name": "Central Wisconsin Airport", "Country": "United States"}, "PIA": {"Latitude": 40.664199829100006, "Longitude": -89.6932983398, "ICAO": "KPIA", "Name": "General Wayne A. Downing Peoria International Airport", "Country": "United States"}, "ATW": {"Latitude": 44.258098602299995, "Longitude": -88.51909637450001, "ICAO": "KATW", "Name": "Appleton International Airport", "Country": "United States"}, "RST": {"Latitude": 43.90829849243164, "Longitude": -92.5, "ICAO": "KRST", "Name": "Rochester International Airport", "Country": "United States"}, "CMI": {"Latitude": 40.03919983, "Longitude": -88.27809906, "ICAO": "KCMI", "Name": "University of Illinois Willard Airport", "Country": "United States"}, "MHK": {"Latitude": 39.14099884033203, "Longitude": -96.6707992553711, "ICAO": "KMHK", "Name": "Manhattan Regional Airport", "Country": "United States"}, "GJT": {"Latitude": 39.1223983765, "Longitude": -108.527000427, "ICAO": "KGJT", "Name": "Grand Junction Regional Airport", "Country": "United States"}, "SGU": {"Latitude": 37.036389, "Longitude": -113.510306, "ICAO": "KSGU", "Name": "St George Municipal Airport", "Country": "United States"}, "SRQ": {"Latitude": 27.39539909362793, "Longitude": -82.55439758300781, "ICAO": "KSRQ", "Name": "Sarasota Bradenton International Airport", "Country": "United States"}, "MLI": {"Latitude": 41.44850158691406, "Longitude": -90.50749969482422, "ICAO": "KMLI", "Name": "Quad City International Airport", "Country": "United States"}, "BIS": {"Latitude": 46.77270126342773, "Longitude": -100.74600219726562, "ICAO": "KBIS", "Name": "Bismarck Municipal Airport", "Country": "United States"}, "RAP": {"Latitude": 44.0452995300293, "Longitude": -103.05699920654295, "ICAO": "KRAP", "Name": "Rapid City Regional Airport", "Country": "United States"}, "FNT": {"Latitude": 42.96540069580078, "Longitude": -83.74359893798828, "ICAO": "KFNT", "Name": "Bishop International Airport", "Country": "United States"}, "RDD": {"Latitude": 40.50899887, "Longitude": -122.2929993, "ICAO": "KRDD", "Name": "Redding Municipal Airport", "Country": "United States"}, "EUG": {"Latitude": 44.12459945678711, "Longitude": -123.21199798583984, "ICAO": "KEUG", "Name": "Mahlon Sweet Field", "Country": "United States"}, "IDA": {"Latitude": 43.514599, "Longitude": -112.070999, "ICAO": "KIDA", "Name": "Idaho Falls Regional Airport", "Country": "United States"}, "MFR": {"Latitude": 42.37419891357422, "Longitude": -122.8730010986328, "ICAO": "KMFR", "Name": "Rogue Valley International Medford Airport", "Country": "United States"}, "RDM": {"Latitude": 44.2541008, "Longitude": -121.1500015, "ICAO": "KRDM", "Name": "Roberts Field", "Country": "United States"}, "CAK": {"Latitude": 40.916099548339844, "Longitude": -81.44219970703125, "ICAO": "KCAK", "Name": "Akron Canton Regional Airport", "Country": "United States"}, "HSV": {"Latitude": 34.637199401855, "Longitude": -86.775100708008, "ICAO": "KHSV", "Name": "Huntsville International Carl T Jones Field", "Country": "United States"}, "MGM": {"Latitude": 32.30059814, "Longitude": -86.39399719, "ICAO": "KMGM", "Name": "Montgomery Regional (Dannelly Field) Airport", "Country": "United States"}, "TRI": {"Latitude": 36.475201, "Longitude": -82.40740100000002, "ICAO": "KTRI", "Name": "Tri-Cities Regional TN/VA Airport", "Country": "United States"}, "PAH": {"Latitude": 37.06079864501953, "Longitude": -88.7738037109375, "ICAO": "KPAH", "Name": "Barkley Regional Airport", "Country": "United States"}, "FCA": {"Latitude": 48.31050109863281, "Longitude": -114.25599670410156, "ICAO": "KGPI", "Name": "Glacier Park International Airport", "Country": "United States"}, "MBS": {"Latitude": 43.532901763916016, "Longitude": -84.07959747314453, "ICAO": "KMBS", "Name": "MBS International Airport", "Country": "United States"}, "BGM": {"Latitude": 42.20869827, "Longitude": -75.97979736, "ICAO": "KBGM", "Name": "Greater Binghamton/Edwin A Link field", "Country": "United States"}, "PSG": {"Latitude": 56.80170059, "Longitude": -132.9450073, "ICAO": "PAPG", "Name": "Petersburg James A Johnson Airport", "Country": "United States"}, "SFB": {"Latitude": 28.7775993347168, "Longitude": -81.23750305175781, "ICAO": "KSFB", "Name": "Orlando Sanford International Airport", "Country": "United States"}, "JST": {"Latitude": 40.31610107421875, "Longitude": -78.83390045166016, "ICAO": "KJST", "Name": "John Murtha Johnstown Cambria County Airport", "Country": "United States"}, "MSO": {"Latitude": 46.91630173, "Longitude": -114.0910034, "ICAO": "KMSO", "Name": "Missoula International Airport", "Country": "United States"}, "EGE": {"Latitude": 39.64260101, "Longitude": -106.9179993, "ICAO": "KEGE", "Name": "Eagle County Regional Airport", "Country": "United States"}, "CSG": {"Latitude": 32.516300201416016, "Longitude": -84.93890380859375, "ICAO": "KCSG", "Name": "Columbus Metropolitan Airport", "Country": "United States"}, "LAW": {"Latitude": 34.5676994324, "Longitude": -98.4166030884, "ICAO": "KLAW", "Name": "Lawton Fort Sill Regional Airport", "Country": "United States"}, "FLG": {"Latitude": 35.13850021, "Longitude": -111.6709976, "ICAO": "KFLG", "Name": "Flagstaff Pulliam Airport", "Country": "United States"}, "TWF": {"Latitude": 42.4818, "Longitude": -114.487999, "ICAO": "KTWF", "Name": "Joslin Field Magic Valley Regional Airport", "Country": "United States"}, "STC": {"Latitude": 45.54660034179688, "Longitude": -94.05989837646484, "ICAO": "KSTC", "Name": "St Cloud Regional Airport", "Country": "United States"}, "GTR": {"Latitude": 33.450298309299995, "Longitude": -88.59140014649998, "ICAO": "KGTR", "Name": "Golden Triangle Regional Airport", "Country": "United States"}, "ERI": {"Latitude": 42.0831270134, "Longitude": -80.1738667488, "ICAO": "KERI", "Name": "Erie International Tom Ridge Field", "Country": "United States"}, "CRW": {"Latitude": 38.37310028076172, "Longitude": -81.59320068359375, "ICAO": "KCRW", "Name": "Yeager Airport", "Country": "United States"}, "AVP": {"Latitude": 41.338500976599995, "Longitude": -75.72339630130001, "ICAO": "KAVP", "Name": "Wilkes Barre Scranton International Airport", "Country": "United States"}, "BJI": {"Latitude": 47.50939941, "Longitude": -94.93370056, "ICAO": "KBJI", "Name": "Bemidji Regional Airport", "Country": "United States"}, "FAR": {"Latitude": 46.92070007324219, "Longitude": -96.81580352783205, "ICAO": "KFAR", "Name": "Hector International Airport", "Country": "United States"}, "GCC": {"Latitude": 44.3488998413, "Longitude": -105.539001465, "ICAO": "KGCC", "Name": "Gillette Campbell County Airport", "Country": "United States"}, "SCE": {"Latitude": 40.8493003845, "Longitude": -77.84870147710002, "ICAO": "KUNV", "Name": "University Park Airport", "Country": "United States"}, "MEI": {"Latitude": 32.33259963989258, "Longitude": -88.75189971923828, "ICAO": "KMEI", "Name": "Key Field", "Country": "United States"}, "SPI": {"Latitude": 39.84410095, "Longitude": -89.67790222, "ICAO": "KSPI", "Name": "Abraham Lincoln Capital Airport", "Country": "United States"}, "HDN": {"Latitude": 40.48120117, "Longitude": -107.2180023, "ICAO": "KHDN", "Name": "Yampa Valley Airport", "Country": "United States"}, "LBL": {"Latitude": 37.04420089999999, "Longitude": -100.9599991, "ICAO": "KLBL", "Name": "Liberal Mid-America Regional Airport", "Country": "United States"}, "COD": {"Latitude": 44.520198822, "Longitude": -109.024002075, "ICAO": "KCOD", "Name": "Yellowstone Regional Airport", "Country": "United States"}, "SGF": {"Latitude": 37.24570084, "Longitude": -93.38860321, "ICAO": "KSGF", "Name": "Springfield Branson National Airport", "Country": "United States"}, "JLN": {"Latitude": 37.151798248291016, "Longitude": -94.49829864501952, "ICAO": "KJLN", "Name": "Joplin Regional Airport", "Country": "United States"}, "ABE": {"Latitude": 40.652099609375, "Longitude": -75.44080352783203, "ICAO": "KABE", "Name": "Lehigh Valley International Airport", "Country": "United States"}, "XNA": {"Latitude": 36.281898, "Longitude": -94.306801, "ICAO": "KXNA", "Name": "Northwest Arkansas Regional Airport", "Country": "United States"}, "SBN": {"Latitude": 41.70869827270508, "Longitude": -86.31729888916016, "ICAO": "KSBN", "Name": "South Bend Regional Airport", "Country": "United States"}, "ACV": {"Latitude": 40.978101, "Longitude": -124.109, "ICAO": "KACV", "Name": "California Redwood Coast-Humboldt County Airport", "Country": "United States"}, "OAJ": {"Latitude": 34.8292007446, "Longitude": -77.61209869380002, "ICAO": "KOAJ", "Name": "Albert J Ellis Airport", "Country": "United States"}, "DBQ": {"Latitude": 42.40200043, "Longitude": -90.70950317, "ICAO": "KDBQ", "Name": "Dubuque Regional Airport", "Country": "United States"}, "ABR": {"Latitude": 45.44910049438477, "Longitude": -98.42179870605469, "ICAO": "KABR", "Name": "Aberdeen Regional Airport", "Country": "United States"}, "ABY": {"Latitude": 31.535499572753906, "Longitude": -84.19450378417969, "ICAO": "KABY", "Name": "Southwest Georgia Regional Airport", "Country": "United States"}, "ALO": {"Latitude": 42.55709838867188, "Longitude": -92.40029907226562, "ICAO": "KALO", "Name": "Waterloo Regional Airport", "Country": "United States"}, "ALW": {"Latitude": 46.09489822, "Longitude": -118.288002, "ICAO": "KALW", "Name": "Walla Walla Regional Airport", "Country": "United States"}, "APN": {"Latitude": 45.07809829999999, "Longitude": -83.56030273, "ICAO": "KAPN", "Name": "Alpena County Regional Airport", "Country": "United States"}, "ATY": {"Latitude": 44.91400146, "Longitude": -97.15470123, "ICAO": "KATY", "Name": "Watertown Regional Airport", "Country": "United States"}, "BFF": {"Latitude": 41.87400055, "Longitude": -103.5960007, "ICAO": "KBFF", "Name": "Western Neb. Rgnl/William B. Heilig Airport", "Country": "United States"}, "BQK": {"Latitude": 31.2588005065918, "Longitude": -81.46649932861328, "ICAO": "KBQK", "Name": "Brunswick Golden Isles Airport", "Country": "United States"}, "CGI": {"Latitude": 37.22529983520508, "Longitude": -89.57080078125, "ICAO": "KCGI", "Name": "Cape Girardeau Regional Airport", "Country": "United States"}, "CIU": {"Latitude": 46.25080108642578, "Longitude": -84.47239685058594, "ICAO": "KCIU", "Name": "Chippewa County International Airport", "Country": "United States"}, "CKB": {"Latitude": 39.2966003418, "Longitude": -80.2281036377, "ICAO": "KCKB", "Name": "North Central West Virginia Airport", "Country": "United States"}, "CMX": {"Latitude": 47.16839981079102, "Longitude": -88.48909759521484, "ICAO": "KCMX", "Name": "Houghton County Memorial Airport", "Country": "United States"}, "DDC": {"Latitude": 37.76340103149414, "Longitude": -99.9655990600586, "ICAO": "KDDC", "Name": "Dodge City Regional Airport", "Country": "United States"}, "EAU": {"Latitude": 44.86579895019531, "Longitude": -91.48429870605469, "ICAO": "KEAU", "Name": "Chippewa Valley Regional Airport", "Country": "United States"}, "EKO": {"Latitude": 40.82490158081055, "Longitude": -115.79199981689452, "ICAO": "KEKO", "Name": "Elko Regional Airport", "Country": "United States"}, "FAY": {"Latitude": 34.991199493408196, "Longitude": -78.88030242919922, "ICAO": "KFAY", "Name": "Fayetteville Regional Grannis Field", "Country": "United States"}, "GRI": {"Latitude": 40.96749877929688, "Longitude": -98.30960083007812, "ICAO": "KGRI", "Name": "Central Nebraska Regional Airport", "Country": "United States"}, "HTS": {"Latitude": 38.36669922, "Longitude": -82.55799866, "ICAO": "KHTS", "Name": "Tri-State/Milton J. Ferguson Field", "Country": "United States"}, "JMS": {"Latitude": 46.92969894, "Longitude": -98.67819977, "ICAO": "KJMS", "Name": "Jamestown Regional Airport", "Country": "United States"}, "LAR": {"Latitude": 41.31209945678711, "Longitude": -105.6750030517578, "ICAO": "KLAR", "Name": "Laramie Regional Airport", "Country": "United States"}, "LBE": {"Latitude": 40.27590179, "Longitude": -79.40480042, "ICAO": "KLBE", "Name": "Arnold Palmer Regional Airport", "Country": "United States"}, "LBF": {"Latitude": 41.12620163, "Longitude": -100.6839981, "ICAO": "KLBF", "Name": "North Platte Regional Airport Lee Bird Field", "Country": "United States"}, "MKG": {"Latitude": 43.16949844, "Longitude": -86.23819733, "ICAO": "KMKG", "Name": "Muskegon County Airport", "Country": "United States"}, "OTH": {"Latitude": 43.41709899902344, "Longitude": -124.24600219726562, "ICAO": "KOTH", "Name": "Southwest Oregon Regional Airport", "Country": "United States"}, "OWB": {"Latitude": 37.74010086, "Longitude": -87.16680145, "ICAO": "KOWB", "Name": "Owensboro Daviess County Airport", "Country": "United States"}, "PIB": {"Latitude": 31.467100143432607, "Longitude": -89.33709716796875, "ICAO": "KPIB", "Name": "Hattiesburg Laurel Regional Airport", "Country": "United States"}, "PIH": {"Latitude": 42.9098014831543, "Longitude": -112.59600067138672, "ICAO": "KPIH", "Name": "Pocatello Regional Airport", "Country": "United States"}, "PIR": {"Latitude": 44.38270187, "Longitude": -100.2860031, "ICAO": "KPIR", "Name": "Pierre Regional Airport", "Country": "United States"}, "PLN": {"Latitude": 45.57089996, "Longitude": -84.79669952, "ICAO": "KPLN", "Name": "Pellston Regional Airport of Emmet County Airport", "Country": "United States"}, "PSM": {"Latitude": 43.0778999329, "Longitude": -70.8233032227, "ICAO": "KPSM", "Name": "Portsmouth International at Pease Airport", "Country": "United States"}, "RHI": {"Latitude": 45.63119888305664, "Longitude": -89.46749877929688, "ICAO": "KRHI", "Name": "Rhinelander Oneida County Airport", "Country": "United States"}, "RKS": {"Latitude": 41.5942, "Longitude": -109.065001, "ICAO": "KRKS", "Name": "Southwest Wyoming Regional Airport", "Country": "United States"}, "SBP": {"Latitude": 35.2368011475, "Longitude": -120.64199829100001, "ICAO": "KSBP", "Name": "San Luis County Regional Airport", "Country": "United States"}, "SHR": {"Latitude": 44.76919937133789, "Longitude": -106.9800033569336, "ICAO": "KSHR", "Name": "Sheridan County Airport", "Country": "United States"}, "SLN": {"Latitude": 38.79100036621094, "Longitude": -97.6521987915039, "ICAO": "KSLN", "Name": "Salina Municipal Airport", "Country": "United States"}, "SMX": {"Latitude": 34.89889908, "Longitude": -120.4570007, "ICAO": "KSMX", "Name": "Santa Maria Pub/Capt G Allan Hancock Field", "Country": "United States"}, "VCT": {"Latitude": 28.85260009765625, "Longitude": -96.9185028076172, "ICAO": "KVCT", "Name": "Victoria Regional Airport", "Country": "United States"}, "VLD": {"Latitude": 30.78249931335449, "Longitude": -83.27670288085938, "ICAO": "KVLD", "Name": "Valdosta Regional Airport", "Country": "United States"}, "YKM": {"Latitude": 46.56819916, "Longitude": -120.5439987, "ICAO": "KYKM", "Name": "Yakima Air Terminal McAllister Field", "Country": "United States"}, "ADK": {"Latitude": 51.87799835205078, "Longitude": -176.64599609375, "ICAO": "PADK", "Name": "Adak Airport", "Country": "United States"}, "WRG": {"Latitude": 56.48429871, "Longitude": -132.36999509999998, "ICAO": "PAWG", "Name": "Wrangell Airport", "Country": "United States"}, "PSC": {"Latitude": 46.26470184326172, "Longitude": -119.11900329589844, "ICAO": "KPSC", "Name": "Tri Cities Airport", "Country": "United States"}, "USA": {"Latitude": 35.387798, "Longitude": -80.709099, "ICAO": "KJQF", "Name": "Concord-Padgett Regional Airport", "Country": "United States"}, "SUN": {"Latitude": 43.50439835, "Longitude": -114.2959976, "ICAO": "KSUN", "Name": "Friedman Memorial Airport", "Country": "United States"}, "AZA": {"Latitude": 33.30780029, "Longitude": -111.6549988, "ICAO": "KIWA", "Name": "Phoenix-Mesa-Gateway Airport", "Country": "United States"}, "HGR": {"Latitude": 39.707901, "Longitude": -77.72949982, "ICAO": "KHGR", "Name": "Hagerstown Regional Richard A Henson Field", "Country": "United States"}, "ESC": {"Latitude": 45.7226982117, "Longitude": -87.0936965942, "ICAO": "KESC", "Name": "Delta County Airport", "Country": "United States"}, "YAK": {"Latitude": 59.503299713100006, "Longitude": -139.660003662, "ICAO": "PAYA", "Name": "Yakutat Airport", "Country": "United States"}, "IMT": {"Latitude": 45.8184013367, "Longitude": -88.11450195309997, "ICAO": "KIMT", "Name": "Ford Airport", "Country": "United States"}, "MTJ": {"Latitude": 38.5097999573, "Longitude": -107.89399719200001, "ICAO": "KMTJ", "Name": "Montrose Regional Airport", "Country": "United States"}, "RIW": {"Latitude": 43.064201355, "Longitude": -108.459999084, "ICAO": "KRIW", "Name": "Riverton Regional Airport", "Country": "United States"}, "EAT": {"Latitude": 47.3988990784, "Longitude": -120.20700073200001, "ICAO": "KEAT", "Name": "Pangborn Memorial Airport", "Country": "United States"}, "BRD": {"Latitude": 46.39830017, "Longitude": -94.13809967, "ICAO": "KBRD", "Name": "Brainerd Lakes Regional Airport", "Country": "United States"}, "LWB": {"Latitude": 37.8582992554, "Longitude": -80.3994979858, "ICAO": "KLWB", "Name": "Greenbrier Valley Airport", "Country": "United States"}, "STS": {"Latitude": 38.50899887, "Longitude": -122.8130035, "ICAO": "KSTS", "Name": "Charles M. Schulz Sonoma County Airport", "Country": "United States"}, "ASE": {"Latitude": 39.22320175, "Longitude": -106.8690033, "ICAO": "KASE", "Name": "Aspen-Pitkin Co/Sardy Field", "Country": "United States"}, "HYS": {"Latitude": 38.84220123, "Longitude": -99.27320099, "ICAO": "KHYS", "Name": "Hays Regional Airport", "Country": "United States"}, "GUC": {"Latitude": 38.53390121, "Longitude": -106.9329987, "ICAO": "KGUC", "Name": "Gunnison Crested Butte Regional Airport", "Country": "United States"}, "PGD": {"Latitude": 26.92020035, "Longitude": -81.99050140000001, "ICAO": "KPGD", "Name": "Charlotte County Airport", "Country": "United States"}, "SHD": {"Latitude": 38.2638015747, "Longitude": -78.8964004517, "ICAO": "KSHD", "Name": "Shenandoah Valley Regional Airport", "Country": "United States"}, "DVL": {"Latitude": 48.11420059, "Longitude": -98.90879822, "ICAO": "KDVL", "Name": "Devils Lake Regional Airport", "Country": "United States"}, "DIK": {"Latitude": 46.7974014282, "Longitude": -102.80200195299999, "ICAO": "KDIK", "Name": "Dickinson Theodore Roosevelt Regional Airport", "Country": "United States"}, "ALS": {"Latitude": 37.434898, "Longitude": -105.866997, "ICAO": "KALS", "Name": "San Luis Valley Regional Bergman Field", "Country": "United States"}, "CNY": {"Latitude": 38.75500107, "Longitude": -109.7549973, "ICAO": "KCNY", "Name": "Canyonlands Field", "Country": "United States"}, "VEL": {"Latitude": 40.4408989, "Longitude": -109.5100021, "ICAO": "KVEL", "Name": "Vernal Regional Airport", "Country": "United States"}, "PVU": {"Latitude": 40.219200134277, "Longitude": -111.72299957275, "ICAO": "KPVU", "Name": "Provo Municipal Airport", "Country": "United States"}, "ECP": {"Latitude": 30.357106, "Longitude": -85.79541400000002, "ICAO": "KECP", "Name": "Northwest Florida Beaches International Airport", "Country": "United States"}, "HHH": {"Latitude": 32.2243995667, "Longitude": -80.6975021362, "ICAO": "KHXD", "Name": "Hilton Head Airport", "Country": "United States"}, "OGD": {"Latitude": 41.195899963379, "Longitude": -112.0120010376, "ICAO": "KOGD", "Name": "Ogden Hinckley Airport", "Country": "United States"}, "SWO": {"Latitude": 36.161201477051, "Longitude": -97.08570098877001, "ICAO": "KSWO", "Name": "Stillwater Regional Airport", "Country": "United States"}}